[
    {
      "id": 1,
      "image": "cafe1",
      "alt": "Cafe 1",
      "name": "硫磺   台北 ｜東區 ",
      "lat": 23.0111,
      "lng": 120.2001,
      "location": "新北市板橋區文化路一段88號",
    "hours": "10:00 - 20:00 (Closed on Wednesdays)"
    },
    {
      "id": 2,
      "image": "cafe2",
      "alt": "Cafe 2",
      "name": "ハハ珈琲店    台北 ｜中山 ",
      "lat": 23.0111,
      "lng": 120.3201,
      "location": "台北市中山區民生東路123號",
      "hours": "09:00 - 18:00 (Closed on Tuesdays)"
    },
    {
      "id": 3,
      "image": "cafe3",
      "alt": "Cafe 3",
      "name": "CONGRATS CAFE  台北 ｜信義",
      "lat": 23.2211,
      "lng": 121.2201,
      "location": "台北市信義區松壽路100號",
      "hours": "11:00 - 22:00 (Closed on Wednesdays)"   
    },
    {
      "id": 4,
      "image": "cafe4",
      "alt": "Cafe 4",
      "name": "珘墨咖啡        台中 ｜北區",
      "lat": 24.1500,
      "lng": 120.6500,
      "location": "台中市北區文化路一段88號",
      "hours": "10:00 - 20:00 (Closed on Thursdays)"  
    },  
     {
    "id": 5,
    "image": "cafe5",
    "alt": "Cafe 5",
    "name": "窄门咖啡 台南 ｜中西",
    "lat": 23.0001,
    "lng": 120.2002,
    "location": "台南市中西區民族路二段88號",
    "hours": "09:00 - 18:00 (Closed on Mondays)"
  },
  {
    "id": 6,
    "image": "cafe6",
    "alt": "Cafe 6",
    "name": "上樓看看 台北 ｜信義",
    "lat": 25.0330,
    "lng": 121.5654,
    "location": "台北市信義區松壽路100號",
    "hours": "11:00 - 22:00 (Closed on Wednesdays)"
  },
  {
    "id": 7,
    "image": "cafe7",
    "alt": "Cafe 7",
    "name": "咖啡•梅 台北 ｜中正",
    "lat": 25.0423,
    "lng": 121.5190,
    "location": "台北市中正區仁愛路四段88號",
    "hours": "10:00 - 20:00 (Closed on Thursdays)"
  },
  {
    "id": 8,
    "image": "cafe8",
    "alt": "Cafe 8",
    "name": "隅咖啡 台北 ｜中正",
    "lat": 25.0418,
    "lng": 121.5169,
    "location": "台北市中正區仁愛路四段88號",
    "hours": "10:00 - 20:00 (Closed on Thursdays)"
  }
  ]

  